{"type":"city","count":393,"source":"OpenStreetMap","timestamp":"2026-01-31T21:22:24.616735","items":[{"id":67157058,"name":"Kathmandu","nameNp":"काठमाडौं","lat":27.708317,"lon":85.3205817,"population":975000,"type":"city","capital":"yes"},{"id":29922899,"name":"Pokhara","nameNp":"पोखरा","lat":28.209538,"lon":83.991402,"population":500000,"type":"city","capital":"4"},{"id":567090203,"name":"Bharatpur","nameNp":"भरतपुर","lat":27.6811896,"lon":84.4301652,"population":369268,"type":"city","capital":"5"},{"id":723880699,"name":"Lalitpur","nameNp":"ललितपुर","lat":27.6765635,"lon":85.3166069,"population":254000,"type":"city","capital":"5"},{"id":329222054,"name":"Biratnagar","nameNp":"विराटनगर","lat":26.4623007,"lon":87.281617,"population":166674,"type":"city","capital":"5"},{"id":282864466,"name":"Nepalgunj","nameNp":"नेपालगञ्ज","lat":28.058903,"lon":81.625847,"population":166258,"type":"city","capital":"6"},{"id":575580459,"name":"Birtamod","nameNp":"बिर्तामोड","lat":26.643393,"lon":87.9914702,"population":139500,"type":"city","capital":""},{"id":575866576,"name":"Birgunj","nameNp":"वीरगञ्ज","lat":27.0135196,"lon":84.8763804,"population":135904,"type":"city","capital":"5"},{"id":575591611,"name":"Damak","nameNp":"दमक","lat":26.6650146,"lon":87.7011507,"population":107500,"type":"city","capital":""},{"id":2924267068,"name":"Bhimdatta","nameNp":"भिमदत्त","lat":28.9665746,"lon":80.1785465,"population":104444,"type":"city","capital":"5"},{"id":1492980542,"name":"Dhangadhi","nameNp":"धनगढी","lat":28.703304,"lon":80.567017,"population":102000,"type":"city","capital":"4"},{"id":296305204,"name":"Kohalpur","nameNp":"कोहलपुर","lat":28.1987467,"lon":81.6909134,"population":100289,"type":"city","capital":""},{"id":806482934,"name":"Janakpur","nameNp":"जनकपुर","lat":26.7284541,"lon":85.9249005,"population":95000,"type":"city","capital":"4"},{"id":3480075072,"name":"Gaindakot","nameNp":"गैंडाकोट","lat":27.7056594,"lon":84.391263,"population":79349,"type":"town","capital":""},{"id":3488407133,"name":"Kamalamai","nameNp":"कमलामाई","lat":27.213335,"lon":85.915497,"population":71016,"type":"town","capital":"5"},{"id":3481538971,"name":"Urlabari City","nameNp":"उर्लाबारी बजार","lat":26.6637932,"lon":87.6380633,"population":70908,"type":"city","capital":""},{"id":2802955238,"name":"Triyuga","nameNp":"त्रियुगा","lat":26.791191,"lon":86.698242,"population":70000,"type":"town","capital":""},{"id":3347570023,"name":"Kirtipur","nameNp":"कीर्तिपुर","lat":27.676664,"lon":85.2782438,"population":65602,"type":"town","capital":""},{"id":575832041,"name":"Siddharthanagar","nameNp":"सिद्धार्थनगर","lat":27.512726,"lon":83.453148,"population":63483,"type":"town","capital":"5"},{"id":3380959036,"name":"Tikapur","nameNp":"टिकापुर","lat":28.5282679,"lon":81.119298,"population":56100,"type":"town","capital":""},{"id":3345770103,"name":"Birendranagar","nameNp":"","lat":28.595387,"lon":81.628494,"population":47914,"type":"city","capital":"4"},{"id":2199663556,"name":"Kalaiya","nameNp":"कलैया","lat":27.032719,"lon":85.00219,"population":42826,"type":"town","capital":"5"},{"id":2803154322,"name":"Rajbiraj","nameNp":"राजविराज","lat":26.539598,"lon":86.74855,"population":37738,"type":"town","capital":"5"},{"id":13455982158,"name":"Sindhulimadhi","nameNp":"सिन्धुलीमाढी","lat":27.2104284,"lon":85.9121924,"population":36436,"type":"town","capital":""},{"id":4839799919,"name":"Rampur","nameNp":"रामपुर","lat":27.8581107,"lon":83.8936046,"population":35396,"type":"town","capital":""},{"id":3957677257,"name":"Putalibazar","nameNp":"पुतलीबजार","lat":28.0980009,"lon":83.8747285,"population":30704,"type":"town","capital":""},{"id":1043713484,"name":"Baglung","nameNp":"बागलुङ","lat":28.2651055,"lon":83.6029924,"population":29360,"type":"town","capital":"5"},{"id":3499801960,"name":"Bidur","nameNp":"बिदुर","lat":27.89526,"lon":85.146446,"population":26750,"type":"town","capital":"5"},{"id":3345770104,"name":"Dhankuta","nameNp":"धनकुटा","lat":26.9825083,"lon":87.3451034,"population":26440,"type":"town","capital":"5"},{"id":3384312037,"name":"Malangawa","nameNp":"मलंगवा","lat":26.8558938,"lon":85.5572948,"population":25102,"type":"town","capital":"5"},{"id":567974486,"name":"Wāling","nameNp":"","lat":27.9817718,"lon":83.7572281,"population":24006,"type":"town","capital":""},{"id":2307153775,"name":"Jaleshwar","nameNp":"जलेश्वर","lat":26.649191,"lon":85.800087,"population":23533,"type":"town","capital":"5"},{"id":3383645104,"name":"Bhimeshwar","nameNp":"भिमेश्वर","lat":27.6635631,"lon":86.0488323,"population":22537,"type":"town","capital":""},{"id":2424953267,"name":"Ilam","nameNp":"इलाम","lat":26.9103896,"lon":87.9281937,"population":18633,"type":"town","capital":"5"},{"id":6142211385,"name":"Sendura","nameNp":"","lat":28.4563882,"lon":81.127414,"population":17000,"type":"village","capital":""},{"id":293621413,"name":"Besisahar","nameNp":"बेसीसहर","lat":28.231316,"lon":84.376144,"population":15442,"type":"town","capital":""},{"id":3386580344,"name":"Barpak","nameNp":"बारपाक","lat":28.202909,"lon":84.744514,"population":15000,"type":"village","capital":""},{"id":2462935816,"name":"Tamghas","nameNp":"तम्घास","lat":28.0687018,"lon":83.248442,"population":14845,"type":"town","capital":"5"},{"id":2177305620,"name":"Manahari","nameNp":"मनहरी","lat":27.5407519,"lon":84.8055604,"population":10000,"type":"village","capital":""},{"id":9012790284,"name":"Sihorawa","nameNp":"","lat":27.4676073,"lon":83.1075221,"population":8774,"type":"village","capital":""},{"id":3911999786,"name":"Jagatradevi","nameNp":"","lat":27.945404,"lon":83.654167,"population":7934,"type":"village","capital":""},{"id":3960849757,"name":"Pawai Gamde","nameNp":"","lat":28.1214909,"lon":83.9138301,"population":7876,"type":"village","capital":""},{"id":3748777354,"name":"Gadhawa","nameNp":"गढवा","lat":27.8110914,"lon":82.5384584,"population":7800,"type":"town","capital":""},{"id":3912009927,"name":"Shrikrishna Gandaki","nameNp":"","lat":27.959406,"lon":83.589211,"population":7292,"type":"village","capital":""},{"id":8593273377,"name":"Gaushala","nameNp":"गौशाला","lat":26.9183988,"lon":85.7802821,"population":7000,"type":"town","capital":""},{"id":3911993004,"name":"Pakwadi","nameNp":"","lat":27.9424244,"lon":83.7519533,"population":6419,"type":"village","capital":""},{"id":3961253451,"name":"Pindikhola","nameNp":"","lat":27.9848451,"lon":83.6362774,"population":5625,"type":"village","capital":""},{"id":3961263294,"name":"Pelakot","nameNp":"","lat":27.9725914,"lon":83.668592,"population":5537,"type":"village","capital":""},{"id":3929951582,"name":"Bhattarai Danda","nameNp":"भट्टराई डाँडा","lat":27.8828246,"lon":83.93142,"population":5510,"type":"village","capital":""},{"id":3912018688,"name":"Birgha Archale","nameNp":"","lat":27.9556261,"lon":83.5435625,"population":5476,"type":"village","capital":""},{"id":3838594611,"name":"Kyakmi","nameNp":"क्याकमी","lat":27.937128,"lon":83.937256,"population":5396,"type":"village","capital":""},{"id":3496148179,"name":"Tokha","nameNp":"टोखा","lat":27.7455698,"lon":85.326434,"population":5152,"type":"town","capital":""},{"id":3838593111,"name":"Chinnebas","nameNp":"चिन्नेबास","lat":27.96822,"lon":83.907974,"population":4753,"type":"village","capital":""},{"id":3838585450,"name":"Malyangkot","nameNp":"मल्याङकोट","lat":27.953093,"lon":83.863319,"population":4684,"type":"village","capital":""},{"id":3838566626,"name":"Sekham","nameNp":"सेखाम","lat":27.916744,"lon":83.878967,"population":4661,"type":"village","capital":""},{"id":3961253227,"name":"Sirsekot","nameNp":"","lat":28.0028355,"lon":83.6837686,"population":4588,"type":"village","capital":""},{"id":8310811297,"name":"Chhapre","nameNp":"","lat":29.1544718,"lon":81.784488,"population":4500,"type":"village","capital":""},{"id":3838592697,"name":"Kihun","nameNp":"किहूँ","lat":27.959688,"lon":83.989799,"population":4448,"type":"village","capital":""},{"id":5671985778,"name":"Dehimandau","nameNp":"","lat":29.5247685,"lon":80.4668394,"population":4362,"type":"village","capital":""},{"id":3911992714,"name":"Tulsibhanjyang","nameNp":"","lat":27.935066,"lon":83.702354,"population":4071,"type":"village","capital":""},{"id":2263094721,"name":"Chitrebhanjyang","nameNp":"चित्रे भञ्ज्याङ","lat":27.975418,"lon":83.959999,"population":4018,"type":"village","capital":""},{"id":5232440662,"name":"Rim","nameNp":"","lat":29.6195467,"lon":80.5545794,"population":4000,"type":"village","capital":""},{"id":3961275738,"name":"Nibuwakharka","nameNp":"","lat":27.9843874,"lon":83.6067849,"population":3977,"type":"village","capital":""},{"id":3382576348,"name":"Dethala","nameNp":"","lat":29.6900645,"lon":80.6069041,"population":3800,"type":"village","capital":""},{"id":3838590286,"name":"Jagat Bhanjyang","nameNp":"जगत भञ्ज्याङ","lat":27.962587,"lon":83.820549,"population":3310,"type":"village","capital":""},{"id":3480018173,"name":"Kewāre Bhanjyang","nameNp":"केवारे भञ्ज्याङ","lat":27.948824,"lon":83.795479,"population":3163,"type":"village","capital":""},{"id":2257810264,"name":"Barhabise","nameNp":"बाह्रविसे","lat":27.787806,"lon":85.899582,"population":3154,"type":"town","capital":""},{"id":8336660936,"name":"Chauki","nameNp":"","lat":29.1357019,"lon":81.7557827,"population":3000,"type":"village","capital":""},{"id":1930991950,"name":"Jubing","nameNp":"","lat":27.597586,"lon":86.68618,"population":2300,"type":"village","capital":""},{"id":3401354611,"name":"Dattu","nameNp":"","lat":29.7925513,"lon":80.4200682,"population":2100,"type":"village","capital":""},{"id":8313591982,"name":"Thinke","nameNp":"","lat":29.1126945,"lon":81.793927,"population":1916,"type":"village","capital":""},{"id":4409112076,"name":"Durgauli","nameNp":"दुरगौली","lat":28.5654965,"lon":81.1051579,"population":1900,"type":"village","capital":""},{"id":3961148877,"name":"Yaladi","nameNp":"","lat":27.9919711,"lon":83.8405519,"population":1765,"type":"village","capital":""},{"id":2495469335,"name":"Saldang","nameNp":"","lat":29.4246158,"lon":83.0722668,"population":1700,"type":"village","capital":""},{"id":11021823461,"name":"Shivapur","nameNp":"","lat":27.6245202,"lon":83.5125119,"population":1500,"type":"town","capital":""},{"id":11021823463,"name":"Deepnagar","nameNp":"","lat":27.6272807,"lon":83.5089143,"population":1500,"type":"town","capital":""},{"id":8311758412,"name":"Ratada","nameNp":"","lat":29.1805444,"lon":81.8960837,"population":1300,"type":"village","capital":""},{"id":3911998428,"name":"Galyang Bazar","nameNp":"","lat":27.94217,"lon":83.6722936,"population":1250,"type":"village","capital":""},{"id":4742463421,"name":"Biruwa","nameNp":"बिरुवा","lat":27.6408142,"lon":85.3927186,"population":1000,"type":"village","capital":""},{"id":5290211262,"name":"Tinje","nameNp":"","lat":29.3720416,"lon":83.2912296,"population":1000,"type":"village","capital":""},{"id":12695940861,"name":"Premnagar","nameNp":"","lat":28.03241,"lon":81.9757928,"population":1000,"type":"village","capital":""},{"id":8300433332,"name":"Octa","nameNp":"","lat":29.0799811,"lon":82.4769935,"population":995,"type":"village","capital":""},{"id":8294369314,"name":"Bhotgaun Kalika","nameNp":"","lat":29.0202647,"lon":82.5533831,"population":900,"type":"village","capital":""},{"id":8310588753,"name":"Okkharvitta","nameNp":"","lat":29.1417691,"lon":81.764591,"population":800,"type":"village","capital":""},{"id":7252575265,"name":"Ila","nameNp":"ईल","lat":29.0612574,"lon":82.5685202,"population":785,"type":"village","capital":""},{"id":8300118176,"name":"Horta","nameNp":"","lat":29.0738491,"lon":82.4528941,"population":770,"type":"village","capital":""},{"id":5329239007,"name":"Pasgaun","nameNp":"","lat":28.2734391,"lon":84.2245824,"population":700,"type":"village","capital":""},{"id":8286015149,"name":"Fulching","nameNp":"","lat":29.0111346,"lon":82.6535287,"population":588,"type":"village","capital":""},{"id":8306207198,"name":"Gairi Gaun","nameNp":"","lat":29.1280453,"lon":82.565791,"population":588,"type":"village","capital":""},{"id":4833266308,"name":"Sundar Basti","nameNp":"सुन्दर बस्ती","lat":27.8854355,"lon":83.9316862,"population":551,"type":"village","capital":""},{"id":8306207205,"name":"Jhyakot","nameNp":"","lat":29.1286275,"lon":82.5613144,"population":539,"type":"village","capital":""},{"id":8297398532,"name":"Sura","nameNp":"","lat":29.0553491,"lon":82.5330734,"population":505,"type":"village","capital":""},{"id":8299965887,"name":"Dargaun Narku","nameNp":"","lat":29.0551,"lon":82.5175716,"population":505,"type":"village","capital":""},{"id":1929142828,"name":"Bung","nameNp":"","lat":27.5125994,"lon":86.8318947,"population":500,"type":"village","capital":""},{"id":1930991951,"name":"Kharikhola","nameNp":"खरीखोला","lat":27.6034532,"lon":86.7045226,"population":500,"type":"village","capital":""},{"id":1931048203,"name":"Junbesi","nameNp":"","lat":27.5821955,"lon":86.5468645,"population":500,"type":"village","capital":""},{"id":5755796388,"name":"Bhindabari","nameNp":"","lat":28.315469,"lon":83.9010017,"population":500,"type":"village","capital":""},{"id":7958591198,"name":"Pikhet","nameNp":"पिखेत","lat":29.4766449,"lon":81.0329095,"population":500,"type":"village","capital":""},{"id":8340573672,"name":"Molpha Bazar","nameNp":"","lat":29.1144573,"lon":81.6824645,"population":500,"type":"village","capital":""},{"id":8340636322,"name":"Shaubada","nameNp":"","lat":29.0881362,"lon":81.587466,"population":500,"type":"village","capital":""},{"id":12718146331,"name":"Kotfera","nameNp":"कोटफेरा","lat":29.4733498,"lon":81.0260047,"population":500,"type":"village","capital":""},{"id":12718146333,"name":"Nuwaghar","nameNp":"नुवाघर","lat":29.4720417,"lon":81.0284241,"population":500,"type":"village","capital":""},{"id":12718146334,"name":"Umra Gaau","nameNp":"उम्रा गाउ","lat":29.4732882,"lon":81.0242405,"population":500,"type":"village","capital":""},{"id":3599414452,"name":"Khanigaon","nameNp":"","lat":28.8981516,"lon":83.0243546,"population":410,"type":"village","capital":""},{"id":1919108589,"name":"Gudel","nameNp":"","lat":27.501961,"lon":86.850624,"population":400,"type":"village","capital":""},{"id":8294301935,"name":"Kalika Aaula","nameNp":"","lat":29.024001,"lon":82.5601155,"population":400,"type":"village","capital":""},{"id":8340573671,"name":"Dadha Bada","nameNp":"","lat":29.1210887,"lon":81.6941509,"population":400,"type":"village","capital":""},{"id":8340573674,"name":"Motila","nameNp":"","lat":29.1223352,"lon":81.6668004,"population":400,"type":"village","capital":""},{"id":10582393187,"name":"Chhangru","nameNp":"छाङ्ग्रु","lat":30.12945,"lon":80.8831629,"population":400,"type":"village","capital":""},{"id":8261630973,"name":"Chanchu","nameNp":"","lat":29.1195175,"lon":82.5124513,"population":387,"type":"village","capital":""},{"id":8340551089,"name":"Samalgau","nameNp":"","lat":29.1009754,"lon":81.6676211,"population":380,"type":"village","capital":""},{"id":8285398521,"name":"Tripurasundari Ward 6","nameNp":"","lat":28.9944838,"lon":82.6960029,"population":350,"type":"village","capital":""},{"id":8285405273,"name":"Palang","nameNp":"","lat":28.9918327,"lon":82.6920319,"population":350,"type":"village","capital":""},{"id":9065871369,"name":"Kanchhi Gaun","nameNp":"","lat":27.8302174,"lon":82.5189214,"population":350,"type":"village","capital":""},{"id":8306356897,"name":"Thapa Gaun","nameNp":"","lat":29.1259237,"lon":82.574708,"population":330,"type":"village","capital":""},{"id":2521942487,"name":"Tinkar","nameNp":"टिंकर","lat":30.135453,"lon":80.9848498,"population":320,"type":"village","capital":""},{"id":8306379191,"name":"Hurikot","nameNp":"","lat":29.1194543,"lon":82.6019177,"population":318,"type":"village","capital":""},{"id":1929142855,"name":"Tatsalung","nameNp":"","lat":27.4935979,"lon":86.8475131,"population":300,"type":"village","capital":""},{"id":2495491307,"name":"Ringmo","nameNp":"","lat":29.170282,"lon":82.936485,"population":300,"type":"village","capital":""},{"id":8340551088,"name":"Dahachaur Haudi","nameNp":"","lat":29.0786195,"lon":81.660009,"population":300,"type":"village","capital":""},{"id":7252554316,"name":"Kaigoan","nameNp":"","lat":29.1116148,"lon":82.5920713,"population":270,"type":"village","capital":""},{"id":8286080868,"name":"Khadang","nameNp":"","lat":28.9924392,"lon":82.6665348,"population":250,"type":"village","capital":""},{"id":8307977349,"name":"Sedikhola","nameNp":"सेदिखोला","lat":29.5634699,"lon":80.8635753,"population":250,"type":"village","capital":""},{"id":1920661199,"name":"Phedi","nameNp":"","lat":27.406828,"lon":86.978989,"population":200,"type":"village","capital":""},{"id":1930991964,"name":"Nunthala","nameNp":"","lat":27.5882157,"lon":86.6461915,"population":200,"type":"village","capital":""},{"id":1930991965,"name":"Ringmu","nameNp":"","lat":27.5900676,"lon":86.6079543,"population":200,"type":"village","capital":""},{"id":5757794974,"name":"Parajuli Gaun","nameNp":"","lat":28.0894673,"lon":84.5431126,"population":200,"type":"village","capital":""},{"id":7965602361,"name":"Mallo Gotanna","nameNp":"","lat":29.6019627,"lon":81.1107485,"population":150,"type":"village","capital":""},{"id":8340633016,"name":"Baratu","nameNp":"","lat":29.1647161,"lon":81.6227746,"population":150,"type":"village","capital":""},{"id":3141298686,"name":"Wangsing Deuralli","nameNp":"","lat":28.1861656,"lon":83.800279,"population":130,"type":"village","capital":""},{"id":7965523720,"name":"Tallo Gotanna","nameNp":"","lat":29.5997281,"lon":81.1155981,"population":120,"type":"village","capital":""},{"id":7025258805,"name":"Yari","nameNp":"","lat":30.1125194,"lon":81.4331425,"population":110,"type":"village","capital":""},{"id":1889979864,"name":"Panggom","nameNp":"पांगौन","lat":27.5863713,"lon":86.7448874,"population":100,"type":"village","capital":""},{"id":1927038021,"name":"Tendo","nameNp":"तेन्दो","lat":27.3980911,"lon":86.9867732,"population":100,"type":"village","capital":""},{"id":1929099892,"name":"Jaubari","nameNp":"","lat":27.4087608,"lon":86.9710999,"population":100,"type":"village","capital":""},{"id":1927038019,"name":"Sarmatar","nameNp":"","lat":27.3997174,"lon":87.007349,"population":80,"type":"village","capital":""},{"id":7965602356,"name":"Para","nameNp":"","lat":29.6059564,"lon":81.0969319,"population":80,"type":"village","capital":""},{"id":7965612708,"name":"Dobna","nameNp":"","lat":29.5934097,"lon":81.1119831,"population":80,"type":"village","capital":""},{"id":8340573670,"name":"Goral Bada","nameNp":"","lat":29.1236825,"lon":81.6967097,"population":60,"type":"village","capital":""},{"id":1927037378,"name":"Doban","nameNp":"","lat":27.3862344,"lon":87.0263253,"population":50,"type":"village","capital":""},{"id":1927037382,"name":"Gothe Bazar","nameNp":"","lat":27.4028043,"lon":87.0649215,"population":50,"type":"village","capital":""},{"id":1931048275,"name":"Tragdobuk","nameNp":"","lat":27.5725252,"lon":86.5288258,"population":50,"type":"village","capital":""},{"id":1920650818,"name":"Sanam","nameNp":"","lat":27.4583288,"lon":86.8956878,"population":40,"type":"village","capital":""},{"id":8340573664,"name":"Shuwada","nameNp":"","lat":29.0973896,"lon":81.6860157,"population":30,"type":"village","capital":""},{"id":8340573665,"name":"Kafalkatiya","nameNp":"","lat":29.0978981,"lon":81.687153,"population":26,"type":"village","capital":""},{"id":11414836889,"name":"Jamdi जाम्दी","nameNp":"जाम्दी","lat":28.0447524,"lon":84.1172913,"population":20,"type":"village","capital":""},{"id":7965609699,"name":"Johanna","nameNp":"","lat":29.5905194,"lon":81.1083376,"population":5,"type":"village","capital":""},{"id":268669741,"name":"Aabu khaireni Bazar","nameNp":"आबूखैरेनी बजार","lat":27.90423,"lon":84.538429,"population":0,"type":"town","capital":""},{"id":268669853,"name":"Dumre","nameNp":"डुम्रे","lat":27.9631254,"lon":84.4096781,"population":0,"type":"town","capital":""},{"id":279339377,"name":"Vyas (Damauli)","nameNp":"व्यास (दमौली)","lat":27.9767129,"lon":84.2693537,"population":0,"type":"town","capital":"5"},{"id":279374592,"name":"Galchhi","nameNp":"गल्छी","lat":27.7973963,"lon":85.0004606,"population":0,"type":"town","capital":""},{"id":296197839,"name":"Tansen","nameNp":"तानसेन","lat":27.866366,"lon":83.5469084,"population":0,"type":"town","capital":"5"},{"id":296306218,"name":"Hetauda","nameNp":"हेटौँडा","lat":27.4295853,"lon":85.0326586,"population":0,"type":"city","capital":"4"},{"id":342104518,"name":"Lamki Chuha","nameNp":"लम्की चुहा","lat":28.628025,"lon":81.152893,"population":0,"type":"town","capital":""},{"id":558555689,"name":"Paunauti","nameNp":"पनौती","lat":27.585045,"lon":85.516022,"population":0,"type":"town","capital":""},{"id":607154975,"name":"Phungling","nameNp":"फुङलिङ","lat":27.3586978,"lon":87.6727257,"population":0,"type":"town","capital":""},{"id":817072708,"name":"Dharan","nameNp":"धरान","lat":26.8128974,"lon":87.2839978,"population":0,"type":"city","capital":""},{"id":973481984,"name":"Lo Manthang","nameNp":"लो मन्थाङ","lat":29.1828351,"lon":83.9563037,"population":0,"type":"town","capital":""},{"id":990365928,"name":"Mangalsen","nameNp":"","lat":29.1409232,"lon":81.2564508,"population":0,"type":"town","capital":""},{"id":1043691512,"name":"Beni","nameNp":"","lat":28.344498,"lon":83.566635,"population":0,"type":"town","capital":"5"},{"id":1596350797,"name":"Mechinagar","nameNp":"मेचीनगर","lat":26.6537048,"lon":88.1274092,"population":0,"type":"town","capital":""},{"id":1772109893,"name":"Budhanilkantha","nameNp":"बूढानीलकण्ठ","lat":27.7603552,"lon":85.3506294,"population":0,"type":"town","capital":""},{"id":1833834697,"name":"Dhulikhel","nameNp":"धुलिखेल","lat":27.618921,"lon":85.552917,"population":0,"type":"city","capital":"5"},{"id":1958230582,"name":"Liwang","nameNp":"लिवाङ्","lat":28.3034253,"lon":82.6370932,"population":0,"type":"town","capital":""},{"id":1958240172,"name":"Bhingri Bajar","nameNp":"भिङ्री बजार","lat":28.1482152,"lon":82.7115274,"population":0,"type":"town","capital":""},{"id":2035862217,"name":"Bhaktapur","nameNp":"भक्तपुर","lat":27.6711133,"lon":85.4261675,"population":0,"type":"city","capital":"5"},{"id":2190979253,"name":"Hilsa","nameNp":"हिल्सा","lat":30.1517658,"lon":81.3333533,"population":0,"type":"town","capital":""},{"id":2199680143,"name":"Jitpur Simara","nameNp":"जीतपुरसिमरा","lat":27.1604122,"lon":84.9765794,"population":0,"type":"city","capital":""},{"id":2206435428,"name":"Bangesimal","nameNp":"","lat":28.608746,"lon":81.5790772,"population":0,"type":"town","capital":""},{"id":2246485364,"name":"Kapilavastu","nameNp":"कपिलवस्तु नगरपालिका","lat":27.5436472,"lon":83.0525748,"population":0,"type":"town","capital":"5"},{"id":2251961918,"name":"Suryabinayak","nameNp":"सूर्यविनायक","lat":27.6675536,"lon":85.4034057,"population":0,"type":"town","capital":""},{"id":2264286090,"name":"Kawasoti","nameNp":"","lat":27.6415327,"lon":84.1251637,"population":0,"type":"town","capital":""},{"id":2282791145,"name":"Lahan","nameNp":"लहान","lat":26.7143868,"lon":86.481247,"population":0,"type":"town","capital":""},{"id":2365554101,"name":"Dakshinkali","nameNp":"दक्षि‍णकाली","lat":27.6109788,"lon":85.264281,"population":0,"type":"town","capital":""},{"id":2406229072,"name":"Amargadhi","nameNp":"अमरगढी","lat":29.3015377,"lon":80.5886638,"population":0,"type":"town","capital":""},{"id":2406229105,"name":"Syauli","nameNp":"स्याउली","lat":29.2921519,"lon":80.6153661,"population":0,"type":"town","capital":""},{"id":2424150061,"name":"Mirchaiya","nameNp":"मिर्चैया","lat":26.8304301,"lon":86.2524757,"population":0,"type":"town","capital":""},{"id":2467557252,"name":"Lamahi","nameNp":"लमही","lat":27.8731938,"lon":82.5223098,"population":0,"type":"town","capital":""},{"id":2568036194,"name":"Katari","nameNp":"कटारी","lat":26.962807,"lon":86.3705031,"population":0,"type":"town","capital":""},{"id":2643251995,"name":"Chainpur","nameNp":"चैनपुर","lat":27.2934027,"lon":87.3194877,"population":0,"type":"town","capital":""},{"id":2766722419,"name":"Katahariya","nameNp":"कटहरिया","lat":26.985842,"lon":85.242752,"population":0,"type":"town","capital":""},{"id":2820387328,"name":"Dhangadhimai","nameNp":"धनगढीमाई","lat":26.7543893,"lon":86.4026859,"population":0,"type":"town","capital":""},{"id":2820894452,"name":"Duhabi","nameNp":"दुहबि","lat":26.56776,"lon":87.2801836,"population":0,"type":"town","capital":""},{"id":2824204063,"name":"Pathari Shanishchare","nameNp":"पथरी शनिश्चरे","lat":26.6571873,"lon":87.5611845,"population":0,"type":"city","capital":""},{"id":2837163617,"name":"Bode Parsain","nameNp":"बोदेबरसाइन","lat":26.5751842,"lon":86.5874863,"population":0,"type":"town","capital":""},{"id":2837163699,"name":"Shambhunath","nameNp":"शम्भुनाथ","lat":26.633529,"lon":86.664645,"population":0,"type":"town","capital":""},{"id":3001756120,"name":"Phidim","nameNp":"फिदिम","lat":27.1441345,"lon":87.7660956,"population":0,"type":"town","capital":""},{"id":3099196271,"name":"Pari Badhu","nameNp":"","lat":29.4909346,"lon":81.7221204,"population":0,"type":"town","capital":""},{"id":3099196291,"name":"Dhulachaur","nameNp":"","lat":29.491105,"lon":81.7269171,"population":0,"type":"town","capital":""},{"id":3111063998,"name":"Pyūthān","nameNp":"प्युठान","lat":28.0886113,"lon":82.8842713,"population":0,"type":"town","capital":""},{"id":3172617940,"name":"Butwal","nameNp":"बुटवल नगरपालिका","lat":27.7003986,"lon":83.4657667,"population":0,"type":"city","capital":"4"},{"id":3205682139,"name":"Thaha","nameNp":"थाहा","lat":27.6336526,"lon":85.0875383,"population":0,"type":"town","capital":""},{"id":3261545305,"name":"Inaruwa","nameNp":"इनरुवा","lat":26.6018952,"lon":87.149907,"population":0,"type":"town","capital":""},{"id":3316604577,"name":"Bhadrapur","nameNp":"भद्रपुर","lat":26.5455566,"lon":88.0903762,"population":0,"type":"town","capital":"5"},{"id":3382453093,"name":"Chainpur","nameNp":"","lat":29.5508851,"lon":81.1963195,"population":0,"type":"town","capital":""},{"id":3382893066,"name":"Rangeli","nameNp":"रङ्गेली","lat":26.4631534,"lon":87.4917723,"population":0,"type":"town","capital":""},{"id":3382908101,"name":"Biratchok","nameNp":"बिराटचोक","lat":26.6683968,"lon":87.3817059,"population":0,"type":"town","capital":""},{"id":3383548157,"name":"Manthali","nameNp":"मन्थली","lat":27.3816177,"lon":86.0607558,"population":0,"type":"town","capital":"5"},{"id":3384195015,"name":"Dhanusadham","nameNp":"धनुषाधाम","lat":26.8336883,"lon":86.0572988,"population":0,"type":"town","capital":""},{"id":3384225373,"name":"Matihani","nameNp":"मटिहानी","lat":26.6136091,"lon":85.8462741,"population":0,"type":"town","capital":""},{"id":3384277290,"name":"Ramgopalpur","nameNp":"रामगोपालपुर","lat":26.820848,"lon":85.796944,"population":0,"type":"town","capital":""},{"id":3384458233,"name":"Gaur","nameNp":"गौर","lat":26.7660963,"lon":85.2749238,"population":0,"type":"town","capital":"5"},{"id":3385063307,"name":"Kusma","nameNp":"","lat":28.2192946,"lon":83.6768133,"population":0,"type":"town","capital":"5"},{"id":3385201356,"name":"Jajarkot","nameNp":"जाजरकोट","lat":28.698212,"lon":82.198257,"population":0,"type":"town","capital":""},{"id":3385201358,"name":"Musikot","nameNp":"मुसिकोट","lat":28.6292298,"lon":82.455626,"population":0,"type":"town","capital":""},{"id":3385201652,"name":"Simikot","nameNp":"सिमिकोट","lat":29.9728637,"lon":81.8201602,"population":0,"type":"town","capital":""},{"id":3385301838,"name":"Narayan","nameNp":"नारायण","lat":28.8428782,"lon":81.7110384,"population":0,"type":"town","capital":""},{"id":3385320866,"name":"Dullu","nameNp":"दुल्लु","lat":28.859602,"lon":81.604836,"population":0,"type":"town","capital":""},{"id":3385949681,"name":"Sandhikharka","nameNp":"सन्धिखर्क","lat":27.975697,"lon":83.127113,"population":0,"type":"town","capital":"5"},{"id":3386116337,"name":"Kapurkot","nameNp":"कपुरकोट","lat":28.2313203,"lon":82.3507966,"population":0,"type":"town","capital":""},{"id":3386116339,"name":"Luham","nameNp":"लुहाम","lat":28.2955487,"lon":82.2602194,"population":0,"type":"town","capital":""},{"id":3386117460,"name":"Salyan Khalanga","nameNp":"सल्यान खलङ्‍गा","lat":28.376621,"lon":82.1616243,"population":0,"type":"town","capital":""},{"id":3386151331,"name":"Gulariya","nameNp":"","lat":28.2048538,"lon":81.3455485,"population":0,"type":"town","capital":""},{"id":3387523769,"name":"Bahadurgunj","nameNp":"बहादुरगञ्ज","lat":27.545067,"lon":82.8454151,"population":0,"type":"town","capital":""},{"id":3387669747,"name":"Nilakantha","nameNp":"नीलकण्ठ","lat":27.9108933,"lon":84.8952805,"population":0,"type":"town","capital":"5"},{"id":3388922070,"name":"Siddhicharan","nameNp":"सिद्धिचरण","lat":27.317984,"lon":86.501404,"population":0,"type":"town","capital":""},{"id":3390962135,"name":"Gauradaha","nameNp":"गौरादह","lat":26.564072,"lon":87.715027,"population":0,"type":"town","capital":""},{"id":3393447821,"name":"Ramechhap","nameNp":"रामेछाप","lat":27.3231683,"lon":86.0833712,"population":0,"type":"town","capital":""},{"id":3453005271,"name":"Pragatinagar","nameNp":"प्रगतिनगर","lat":27.6670739,"lon":84.1800393,"population":0,"type":"town","capital":""},{"id":3453225373,"name":"Khairhani","nameNp":"खैरहनी","lat":27.610627,"lon":84.569476,"population":0,"type":"town","capital":""},{"id":3480018174,"name":"रामग्राम","nameNp":"रामग्राम","lat":27.5328566,"lon":83.6665482,"population":0,"type":"town","capital":"5"},{"id":3495459822,"name":"Babiyachaur","nameNp":"","lat":28.3939491,"lon":83.4566492,"population":0,"type":"town","capital":""},{"id":3495459827,"name":"Phaliyagaon","nameNp":"","lat":28.4971549,"lon":83.3222812,"population":0,"type":"town","capital":""},{"id":3495459829,"name":"Tatopani","nameNp":"","lat":28.367905,"lon":83.5123322,"population":0,"type":"town","capital":""},{"id":3497321288,"name":"Panchkhal","nameNp":"पाँचखाल","lat":27.6468087,"lon":85.619863,"population":0,"type":"town","capital":""},{"id":3502673882,"name":"Bhojpur","nameNp":"भोजपुर","lat":27.166632,"lon":87.0510921,"population":0,"type":"town","capital":""},{"id":3509138892,"name":"Golbazar","nameNp":"गोलबजार","lat":26.7926143,"lon":86.3314614,"population":0,"type":"town","capital":""},{"id":3528110414,"name":"ChebeTar Bazar","nameNp":"छेबेटार बजार","lat":27.9952599,"lon":84.5684588,"population":0,"type":"town","capital":""},{"id":3727776757,"name":"Bhalubang","nameNp":"भालुबाङ्","lat":27.8411208,"lon":82.7610322,"population":0,"type":"town","capital":"3"},{"id":3764146091,"name":"Bhangaha","nameNp":"भँगाहा","lat":26.8656944,"lon":85.8909575,"population":0,"type":"town","capital":""},{"id":3768829784,"name":"Nagarain","nameNp":"नगराइन","lat":26.6403622,"lon":85.9278422,"population":0,"type":"town","capital":""},{"id":3771560355,"name":"Balwa","nameNp":"बलवा","lat":26.7442769,"lon":85.7875661,"population":0,"type":"town","capital":""},{"id":3772605425,"name":"Loharpatti","nameNp":"लोहरपट्टी","lat":26.7967582,"lon":85.8527675,"population":0,"type":"town","capital":""},{"id":3781738499,"name":"Kuwakot","nameNp":"कुवाकोट","lat":27.894232,"lon":83.797836,"population":0,"type":"town","capital":""},{"id":4404077444,"name":"Amiliya","nameNp":"अमिलिया","lat":27.9714787,"lon":82.2113841,"population":0,"type":"town","capital":""},{"id":4426056120,"name":"Budhi","nameNp":"","lat":27.6395057,"lon":83.0147006,"population":0,"type":"town","capital":""},{"id":4576003811,"name":"Rajpur","nameNp":"राजपुर","lat":26.8271332,"lon":85.2339455,"population":0,"type":"town","capital":""},{"id":4576003817,"name":"Paroha","nameNp":"परोहा","lat":26.8441929,"lon":85.2313894,"population":0,"type":"town","capital":""},{"id":4581518804,"name":"Simraungadh","nameNp":"सिम्रौनगढ","lat":26.8868849,"lon":85.1307441,"population":0,"type":"town","capital":""},{"id":4581518806,"name":"Baudhimai","nameNp":"बौधीमाई","lat":26.8850526,"lon":85.2183851,"population":0,"type":"town","capital":""},{"id":4763755375,"name":"Narayanpur","nameNp":"नारायणपुर","lat":28.0537392,"lon":82.4082294,"population":0,"type":"town","capital":""},{"id":4763786621,"name":"Beljhundi","nameNp":"बेलझुण्डी","lat":28.0960411,"lon":82.359667,"population":0,"type":"town","capital":""},{"id":4763790360,"name":"Bijauri","nameNp":"बिजौरी","lat":28.1141479,"lon":82.3388122,"population":0,"type":"town","capital":""},{"id":4763793928,"name":"Parseni","nameNp":"पर्सेनी","lat":28.1203469,"lon":82.3254175,"population":0,"type":"town","capital":""},{"id":4896508190,"name":"Gorkha","nameNp":"गोरखा","lat":27.9969584,"lon":84.6259428,"population":0,"type":"city","capital":""},{"id":4951090023,"name":"Bheltadi Bazaar","nameNp":"","lat":29.0771047,"lon":81.4718465,"population":0,"type":"town","capital":""},{"id":5417397405,"name":"Itahari","nameNp":"इटहरी","lat":26.6622505,"lon":87.2748964,"population":0,"type":"city","capital":""},{"id":5671365148,"name":"Pokhariya","nameNp":"पोखरीया","lat":27.0796725,"lon":84.7604923,"population":0,"type":"town","capital":""},{"id":5672065541,"name":"Bardibas","nameNp":"बर्दिबास","lat":26.9904442,"lon":85.8933142,"population":0,"type":"town","capital":""},{"id":5672124061,"name":"Lalbandi","nameNp":"लालबन्दी","lat":27.0534361,"lon":85.6299701,"population":0,"type":"town","capital":""},{"id":5672125455,"name":"Hariwan","nameNp":"हरिवन","lat":27.0897366,"lon":85.5492936,"population":0,"type":"town","capital":""},{"id":5741082255,"name":"Khaira","nameNp":"खैरा","lat":28.062632,"lon":82.3982761,"population":0,"type":"town","capital":""},{"id":5809166582,"name":"Ghorahi","nameNp":"घोराही","lat":28.0393605,"lon":82.4866861,"population":0,"type":"city","capital":"6"},{"id":5874653695,"name":"Tulsipur","nameNp":"तुलसीपुर","lat":28.1312133,"lon":82.2983065,"population":0,"type":"city","capital":"5"},{"id":5922899535,"name":"Hannumannagar Kankalini","nameNp":"हनुमाननगर कङ्कालिनी","lat":26.5044827,"lon":86.8590707,"population":0,"type":"town","capital":""},{"id":5964777597,"name":"Tilottama","nameNp":"","lat":27.6215536,"lon":83.4625103,"population":0,"type":"city","capital":""},{"id":6339947315,"name":"Jiri","nameNp":"जिरी","lat":27.6373777,"lon":86.2310664,"population":0,"type":"town","capital":""},{"id":6349584672,"name":"Mahalaxmi","nameNp":"महालक्ष्मी","lat":27.6568094,"lon":85.3483674,"population":0,"type":"town","capital":""},{"id":6413994402,"name":"Dasharathchand","nameNp":"","lat":29.5606296,"lon":80.4163524,"population":0,"type":"town","capital":""},{"id":6434169987,"name":"Godawari","nameNp":"गोदावरी","lat":27.6074182,"lon":85.3294079,"population":0,"type":"town","capital":""},{"id":6454398744,"name":"Shahidnagar","nameNp":"शहीदनगर","lat":26.726383,"lon":86.0939126,"population":0,"type":"town","capital":""},{"id":6461590329,"name":"Kalika","nameNp":"कालिका","lat":27.6857995,"lon":84.5063689,"population":0,"type":"town","capital":""},{"id":6508542863,"name":"Madhyapur Thimi","nameNp":"मध्यपुर थिमि","lat":27.6800062,"lon":85.3857303,"population":0,"type":"town","capital":""},{"id":6646454828,"name":"Chandragiri","nameNp":"चन्द्रागिरी","lat":27.6889272,"lon":85.2422926,"population":0,"type":"town","capital":""},{"id":6646454829,"name":"Gokarneshwar","nameNp":"गोकर्णेश्वर","lat":27.7262875,"lon":85.3759059,"population":0,"type":"town","capital":""},{"id":6646454830,"name":"Kageshwori Manohara","nameNp":"कागेश्वरी मनोहरा","lat":27.7279083,"lon":85.4084253,"population":0,"type":"town","capital":""},{"id":6646454831,"name":"Nagarjun","nameNp":"नागार्जुन","lat":27.7174824,"lon":85.2693125,"population":0,"type":"town","capital":""},{"id":6646454832,"name":"Shankharapur","nameNp":"शङ्खरापुर","lat":27.7306618,"lon":85.4662032,"population":0,"type":"town","capital":""},{"id":6646454833,"name":"Tarakeshwar","nameNp":"तारकेश्वर","lat":27.7646557,"lon":85.3000695,"population":0,"type":"town","capital":""},{"id":6652889772,"name":"Changunarayan","nameNp":"चाँगुनारायण","lat":27.7162698,"lon":85.4292752,"population":0,"type":"town","capital":""},{"id":6968554852,"name":"Khalanga","nameNp":"","lat":29.8435629,"lon":80.5398695,"population":0,"type":"town","capital":""},{"id":6985223989,"name":"Sanphebagar","nameNp":"","lat":29.2344494,"lon":81.2160461,"population":0,"type":"town","capital":""},{"id":7706779883,"name":"Barahathawa","nameNp":"बरहथवा","lat":26.9988904,"lon":85.4641861,"population":0,"type":"town","capital":""},{"id":7867791081,"name":"Mahalaxmi","nameNp":"महालक्ष्मी","lat":27.6463117,"lon":85.3709918,"population":0,"type":"town","capital":""},{"id":7868016281,"name":"Shuklagandaki","nameNp":"","lat":28.0371267,"lon":84.0848974,"population":0,"type":"town","capital":""},{"id":8157956930,"name":"Chandannath","nameNp":"चन्दननाथ","lat":29.2749492,"lon":82.1832699,"population":0,"type":"town","capital":""},{"id":8179020316,"name":"Halesi Tuwachung","nameNp":"हलेसी तुवाचुङ","lat":27.1916927,"lon":86.6228208,"population":0,"type":"town","capital":""},{"id":8221119379,"name":"Nele Bazar","nameNp":"","lat":27.4381897,"lon":86.6359842,"population":0,"type":"town","capital":""},{"id":8267932624,"name":"Chatara","nameNp":"चतरा","lat":26.8203203,"lon":87.1611255,"population":0,"type":"town","capital":""},{"id":8290508083,"name":"Chandrapur","nameNp":"चन्द्रपुर","lat":27.1190444,"lon":85.3559137,"population":0,"type":"town","capital":""},{"id":8309132733,"name":"Manma","nameNp":"मान्मा","lat":29.1503646,"lon":81.612609,"population":0,"type":"town","capital":""},{"id":8394090258,"name":"Urahari","nameNp":"उरहरी","lat":28.0538525,"lon":82.2606374,"population":0,"type":"town","capital":""},{"id":8462428092,"name":"Kshireshwornath","nameNp":"क्षिरेश्वरनाथ","lat":26.8634226,"lon":85.9583838,"population":0,"type":"town","capital":""},{"id":8465182009,"name":"Dipayal","nameNp":"दिपायल","lat":29.2601327,"lon":80.9392387,"population":0,"type":"town","capital":"6"},{"id":8465280710,"name":"Silgadhi","nameNp":"सिलगढी","lat":29.267055,"lon":80.983336,"population":0,"type":"town","capital":""},{"id":8593273368,"name":"Aurahi","nameNp":"औरही","lat":26.8938674,"lon":85.824685,"population":0,"type":"town","capital":""},{"id":8829476040,"name":"Fulbari 25 Ghar","nameNp":"","lat":28.5934174,"lon":80.7135139,"population":0,"type":"town","capital":""},{"id":8844224719,"name":"Ganeshman Charnath","nameNp":"गणेशमान चारनाथ","lat":26.8941866,"lon":86.0808467,"population":0,"type":"town","capital":""},{"id":8985637273,"name":"Laxmi BaZaar","nameNp":"लक्ष्मी बजार","lat":27.9681306,"lon":84.6201807,"population":0,"type":"town","capital":""},{"id":9019286290,"name":"Chaudandigadhi","nameNp":"चाैदण्डीगढी","lat":26.8118241,"lon":86.8848108,"population":0,"type":"town","capital":""},{"id":9019851211,"name":"Nijgadh","nameNp":"निजगढ","lat":27.1787176,"lon":85.1864273,"population":0,"type":"town","capital":""},{"id":9019971168,"name":"Ratnanagar","nameNp":"रत्ननगर","lat":27.6218213,"lon":84.5150387,"population":0,"type":"town","capital":""},{"id":9220894174,"name":"Thuibheri","nameNp":"","lat":28.9519777,"lon":82.8934914,"population":0,"type":"town","capital":""},{"id":9271197952,"name":"Holeri","nameNp":"होलेरि","lat":28.184019,"lon":82.5064498,"population":0,"type":"town","capital":""},{"id":9519329053,"name":"Sarra","nameNp":"सर्रा","lat":28.0323349,"lon":82.4441421,"population":0,"type":"town","capital":""},{"id":9526157419,"name":"Malpi Gaun","nameNp":"","lat":27.5820727,"lon":85.5025906,"population":0,"type":"town","capital":""},{"id":9527851340,"name":"Siddhartha Binayak Tole","nameNp":"","lat":27.687216,"lon":83.309232,"population":0,"type":"town","capital":""},{"id":9694984390,"name":"Babathan","nameNp":"","lat":28.8704777,"lon":80.0796457,"population":0,"type":"town","capital":""},{"id":9695186796,"name":"Ghartigaun","nameNp":"घर्तीगाउँ","lat":28.3897477,"lon":82.5085157,"population":0,"type":"town","capital":""},{"id":9771055596,"name":"Chandrauta","nameNp":"चन्द्रौटा","lat":27.648914,"lon":82.8645864,"population":0,"type":"town","capital":""},{"id":9943931443,"name":"Rimna Bazar","nameNp":"रिम्ना बजार","lat":28.698965,"lon":82.2785846,"population":0,"type":"town","capital":""},{"id":10062755155,"name":"Bestada","nameNp":"बेस्तडा","lat":28.7873664,"lon":81.8255404,"population":0,"type":"town","capital":""},{"id":10255229528,"name":"Agaiya","nameNp":"अगैया","lat":28.0420425,"lon":81.9569175,"population":0,"type":"town","capital":""},{"id":10266637632,"name":"Melamchi","nameNp":"मेलम्ची","lat":27.8293022,"lon":85.5761316,"population":0,"type":"town","capital":""},{"id":10269035814,"name":"Palungtar Bazar","nameNp":"पालुङटार बजार","lat":28.0479977,"lon":84.4845196,"population":0,"type":"town","capital":""},{"id":10593050915,"name":"Gokuleshwar","nameNp":"गोकुलेश्वर","lat":29.6679474,"lon":80.5441364,"population":0,"type":"town","capital":""},{"id":10594976685,"name":"Balach","nameNp":"","lat":29.6827051,"lon":80.6491417,"population":0,"type":"town","capital":""},{"id":10633046921,"name":"Banepa","nameNp":"बनेपा","lat":27.6298835,"lon":85.5240429,"population":0,"type":"town","capital":""},{"id":10676790224,"name":"Beldadi","nameNp":"बेलडाँडी","lat":28.7755625,"lon":80.2711409,"population":0,"type":"town","capital":""},{"id":10737861221,"name":"Laksmipur","nameNp":"लक्ष्मीपुर","lat":28.6639306,"lon":80.3964525,"population":0,"type":"town","capital":""},{"id":10744012052,"name":"Amraiya","nameNp":"अमरैया","lat":28.683764,"lon":80.4416263,"population":0,"type":"town","capital":""},{"id":10744012056,"name":"Kalika Bajar","nameNp":"","lat":28.6532395,"lon":80.4516952,"population":0,"type":"town","capital":""},{"id":10956790011,"name":"Attairya","nameNp":"अत्तेरिया","lat":28.8119245,"lon":80.5528548,"population":0,"type":"town","capital":""},{"id":11113728308,"name":"Rakam","nameNp":"","lat":29.0542424,"lon":81.4566721,"population":0,"type":"town","capital":""},{"id":11277494560,"name":"Kotre","nameNp":"कोत्रे","lat":28.0920304,"lon":84.0824175,"population":0,"type":"town","capital":""},{"id":11286408742,"name":"Kanchanrup","nameNp":"कञ्चनरूप","lat":26.6416032,"lon":86.9147697,"population":0,"type":"town","capital":""},{"id":11328812248,"name":"Namobuddha","nameNp":"नमोबुद्ध","lat":27.5606493,"lon":85.6416141,"population":0,"type":"town","capital":""},{"id":11357643278,"name":"Khairenitar","nameNp":"खैरेनीटार","lat":28.0258265,"lon":84.0903075,"population":0,"type":"city","capital":""},{"id":12511873732,"name":"Sireta Village","nameNp":"सिरेटा गाउँ","lat":29.483173,"lon":81.0662141,"population":0,"type":"village","capital":""},{"id":12511899355,"name":"Rauli","nameNp":"राउली","lat":29.4850727,"lon":81.061466,"population":0,"type":"village","capital":""},{"id":12609740708,"name":"Bardaghat","nameNp":"","lat":27.5514632,"lon":83.7993104,"population":0,"type":"town","capital":""},{"id":12649876475,"name":"Manebhanjyang","nameNp":"","lat":26.9874252,"lon":88.1201268,"population":0,"type":"town","capital":""},{"id":12848523048,"name":"जस्पुर","nameNp":"","lat":28.0518535,"lon":82.7853823,"population":0,"type":"town","capital":""},{"id":12890489991,"name":"Imili","nameNp":"इमिली","lat":29.4880854,"lon":81.0627263,"population":0,"type":"village","capital":""},{"id":12890489992,"name":"Lamadada","nameNp":"लामा डाडा","lat":29.4905862,"lon":81.0683601,"population":0,"type":"village","capital":""},{"id":12890489994,"name":"Khani","nameNp":"खानी","lat":29.4934518,"lon":81.0664203,"population":0,"type":"village","capital":""},{"id":13127056138,"name":"Belaka","nameNp":"बेलका","lat":26.8142636,"lon":87.0673835,"population":0,"type":"town","capital":""},{"id":13131907035,"name":"Suryodaya","nameNp":"सूर्योदय","lat":26.8951372,"lon":88.0676056,"population":0,"type":"town","capital":""},{"id":13131907037,"name":"Mai","nameNp":"माई","lat":26.7615555,"lon":87.8890268,"population":0,"type":"town","capital":""},{"id":13131907040,"name":"Deumai","nameNp":"देउमाई","lat":26.941219,"lon":87.8393995,"population":0,"type":"town","capital":""},{"id":13136677420,"name":"Shadananda","nameNp":"षडानन्द","lat":27.354691,"lon":87.1376496,"population":0,"type":"town","capital":""},{"id":13144876978,"name":"Myanglung","nameNp":"म्याङलुङ","lat":27.1253718,"lon":87.5365953,"population":0,"type":"town","capital":""},{"id":13144876979,"name":"Laligurans","nameNp":"लालीगुराँस","lat":27.1304723,"lon":87.4067325,"population":0,"type":"town","capital":""},{"id":13147961980,"name":"Kankai","nameNp":"कनकाई","lat":26.6402224,"lon":87.9087495,"population":0,"type":"town","capital":""},{"id":13147961984,"name":"Arjundhara","nameNp":"अर्जुनधारा","lat":26.6847754,"lon":87.9918046,"population":0,"type":"town","capital":""},{"id":13147961985,"name":"Shivasataxi","nameNp":"शिवसताक्षी","lat":26.6170267,"lon":87.8412841,"population":0,"type":"town","capital":""},{"id":13150192754,"name":"Mahalaxmi","nameNp":"महालक्ष्मी","lat":27.1138106,"lon":87.3193602,"population":0,"type":"town","capital":""},{"id":13150192755,"name":"Pakhribas","nameNp":"पाख्रीबास","lat":27.0559408,"lon":87.2761974,"population":0,"type":"town","capital":""},{"id":13151626253,"name":"Panchakhapan","nameNp":"पाँचखपन","lat":27.3368144,"lon":87.3067104,"population":0,"type":"town","capital":""},{"id":13151626254,"name":"Madi","nameNp":"मादी","lat":27.2613959,"lon":87.3539382,"population":0,"type":"town","capital":""},{"id":13151626255,"name":"Dharmadevi","nameNp":"धर्मदेवी","lat":27.1996322,"lon":87.3494063,"population":0,"type":"town","capital":""},{"id":13151626256,"name":"Khandbari","nameNp":"खाँदबारी","lat":27.3747717,"lon":87.2091422,"population":0,"type":"town","capital":""},{"id":13152168049,"name":"Khumbupasanglahmu","nameNp":"खुम्बु पासाङल्हामु","lat":27.699407,"lon":86.71692,"population":0,"type":"town","capital":""},{"id":13152168050,"name":"Mahakulung","nameNp":"महाकुलुङ","lat":27.5145304,"lon":86.8341587,"population":0,"type":"town","capital":""},{"id":13153624546,"name":"Ramdhuni","nameNp":"रामधुनी","lat":26.674058,"lon":87.2017292,"population":0,"type":"town","capital":""},{"id":13153624547,"name":"Barahaksetra","nameNp":"बराहक्षेत्र","lat":26.751909,"lon":87.1390594,"population":0,"type":"town","capital":""},{"id":13157713631,"name":"Ratuwamai","nameNp":"रतुवामाई","lat":26.4920725,"lon":87.6377267,"population":0,"type":"town","capital":""},{"id":13157713632,"name":"Sunavarshi","nameNp":"सुनवर्षि","lat":26.4604944,"lon":87.5508978,"population":0,"type":"town","capital":""},{"id":13157713635,"name":"Belbari","nameNp":"बेलबारी","lat":26.659801,"lon":87.4149662,"population":0,"type":"town","capital":""},{"id":13157713636,"name":"Letang","nameNp":"लेटाङ","lat":26.7379902,"lon":87.5029223,"population":0,"type":"town","capital":""},{"id":13169994418,"name":"Pacharauta","nameNp":"पचरौता","lat":26.8867466,"lon":85.0718189,"population":0,"type":"town","capital":""},{"id":13169994422,"name":"Mahagadhimai","nameNp":"महागढीमाई","lat":26.9828328,"lon":85.0544134,"population":0,"type":"town","capital":""},{"id":13169994426,"name":"Kolhabi","nameNp":"कोल्हवी","lat":27.0730435,"lon":85.1730359,"population":0,"type":"town","capital":""},{"id":13174036329,"name":"Parsagadhi","nameNp":"पर्सागढी","lat":27.1486202,"lon":84.8799348,"population":0,"type":"town","capital":""},{"id":13174036336,"name":"Bahudarmai","nameNp":"बहुदरमाई","lat":27.0880154,"lon":84.827115,"population":0,"type":"town","capital":""},{"id":13175919873,"name":"Mithila Bihari","nameNp":"मिथिला बिहारी","lat":26.7868625,"lon":85.993538,"population":0,"type":"town","capital":""},{"id":13175919875,"name":"Mithila","nameNp":"मिथिला","lat":26.9282297,"lon":85.9537502,"population":0,"type":"town","capital":""},{"id":13176071924,"name":"Bideha","nameNp":"विदेह","lat":26.686861,"lon":86.0698375,"population":0,"type":"town","capital":""},{"id":13176071925,"name":"Kamala","nameNp":"कमला","lat":26.6785037,"lon":86.1238556,"population":0,"type":"town","capital":""},{"id":13176120453,"name":"Sabaila","nameNp":"सबैला","lat":26.7982662,"lon":86.0914126,"population":0,"type":"town","capital":""},{"id":13176120458,"name":"Hansapur","nameNp":"हंसपुर","lat":26.7607855,"lon":85.99678,"population":0,"type":"town","capital":""},{"id":13182346065,"name":"Brindaban","nameNp":"वृन्दावन","lat":27.0119249,"lon":85.3637218,"population":0,"type":"town","capital":""},{"id":13182346066,"name":"Dewahi Gonahi","nameNp":"देवाही गोनाही","lat":26.9379933,"lon":85.265307,"population":0,"type":"town","capital":""},{"id":13182346067,"name":"Garuda","nameNp":"गरुडा","lat":26.9508984,"lon":85.3176514,"population":0,"type":"town","capital":""},{"id":13182346068,"name":"Gadhimai","nameNp":"गढीमाई","lat":26.9666985,"lon":85.3861966,"population":0,"type":"town","capital":""},{"id":13182346069,"name":"Madhav Narayan","nameNp":"माधव नारायण","lat":26.8910983,"lon":85.3393442,"population":0,"type":"town","capital":""},{"id":13182346072,"name":"Rajdevi","nameNp":"राजदेवी","lat":26.768418,"lon":85.3137994,"population":0,"type":"town","capital":""},{"id":13182346073,"name":"Ishanath","nameNp":"ईशनाथ","lat":26.7785995,"lon":85.2213585,"population":0,"type":"town","capital":""},{"id":13182346074,"name":"Maulapur","nameNp":"मौलापुर","lat":26.9258645,"lon":85.2030007,"population":0,"type":"town","capital":""},{"id":13182346075,"name":"Phatuwa Bijayapur","nameNp":"फतुवा विजयपुर","lat":27.0302706,"lon":85.2049505,"population":0,"type":"town","capital":""},{"id":13182346076,"name":"Gujara","nameNp":"गुजरा","lat":27.0494748,"lon":85.3082182,"population":0,"type":"town","capital":""},{"id":13185347357,"name":"Saptakoshi","nameNp":"सप्तकोशी","lat":26.7139943,"lon":86.9406671,"population":0,"type":"town","capital":""},{"id":13185347363,"name":"Dakneshwori","nameNp":"डाक्नेश्वरी","lat":26.5093698,"lon":86.6220371,"population":0,"type":"town","capital":""},{"id":13185347367,"name":"Surunga","nameNp":"सुरुङ्गा","lat":26.7012798,"lon":86.5260254,"population":0,"type":"town","capital":""},{"id":13185347368,"name":"Khadak","nameNp":"खडक","lat":26.6452344,"lon":86.623649,"population":0,"type":"town","capital":""},{"id":13189509448,"name":"Haripurwa","nameNp":"हरिपुर्वा","lat":26.9027997,"lon":85.6814605,"population":0,"type":"town","capital":""},{"id":13189509449,"name":"Kabilasi","nameNp":"कविलासी","lat":26.9274739,"lon":85.5557118,"population":0,"type":"town","capital":""},{"id":13189509452,"name":"Godaita","nameNp":"गोडैता","lat":26.8831559,"lon":85.4636053,"population":0,"type":"town","capital":""},{"id":13189509453,"name":"Balara","nameNp":"बलरा","lat":26.7660453,"lon":85.3721832,"population":0,"type":"town","capital":""},{"id":13189509455,"name":"Bagmati","nameNp":"बागमती","lat":27.1197705,"lon":85.494819,"population":0,"type":"town","capital":""},{"id":13189509456,"name":"Ishworpur","nameNp":"ईश्वरपुर","lat":27.0044352,"lon":85.6445089,"population":0,"type":"town","capital":""},{"id":13191590646,"name":"Kalyanpur","nameNp":"कल्याणपुर","lat":26.7680036,"lon":86.1839016,"population":0,"type":"town","capital":""},{"id":13191590647,"name":"Siraha","nameNp":"सिराहा","lat":26.6602708,"lon":86.2126153,"population":0,"type":"town","capital":""},{"id":13191590654,"name":"Sukhipur","nameNp":"सुखीपुर","lat":26.7077709,"lon":86.3617111,"population":0,"type":"town","capital":""},{"id":13198696117,"name":"Manra Siswa","nameNp":"मनरा शिसवा","lat":26.7275303,"lon":85.7482464,"population":0,"type":"town","capital":""},{"id":13233416300,"name":"Rapti","nameNp":"राप्ती","lat":27.6020942,"lon":84.6521547,"population":0,"type":"town","capital":""},{"id":13233430802,"name":"Madi","nameNp":"माडी","lat":27.4558951,"lon":84.3209706,"population":0,"type":"town","capital":""},{"id":13235260359,"name":"Dhunibesi","nameNp":"धुनिवेशी","lat":27.717132,"lon":85.1605142,"population":0,"type":"town","capital":""},{"id":13249206592,"name":"Chautara Sangachok Gadhi","nameNp":"चौतारा साँगाचोकगढी","lat":27.7751357,"lon":85.7147651,"population":0,"type":"town","capital":""},{"id":13253098605,"name":"Dudhauli","nameNp":"दुधौली","lat":26.9645357,"lon":86.2850059,"population":0,"type":"town","capital":""},{"id":13266440921,"name":"Mandandeupur","nameNp":"मण्डनदेउपुर","lat":27.714525,"lon":85.6147953,"population":0,"type":"town","capital":""},{"id":13299754688,"name":"Salleri","nameNp":"सल्लेरी","lat":27.5034009,"lon":86.5860388,"population":0,"type":"town","capital":""},{"id":13370197382,"name":"Belkotgadhi","nameNp":"बेलकोटगढी","lat":27.8391652,"lon":85.1325401,"population":0,"type":"town","capital":""}]}